stop_id,stop_code,stop_name,stop_lon,stop_lat
490000345Z,,Hallsville Road,0.011065,51.513027
910GWATRLMN,,Waterloo Mainline,-0.11222,51.503703
490005204Z,,Chislehurst Sainsbury's,0.066852,51.418832
490G000117,,Colonnades Leisure Park,-0.116035,51.356938
680000052222,,,,
6200246639,,,,
0000SPT11202,,"Avon Street, Motherwell",-3.99409,55.78593
0000SPT14296,,Kirkfieldbank Road,-3.776081,55.636306
0000SPT14295,,,,
0000SPT19699,,"AYR, A77",-4.595827,55.455849
0000SPT19591,,Monkton Roundabout (Southbound),1.281014,51.342617
0000SPT19747,,,,
0000SPT19783,,"AYR, A70 Roundabout",-4.593869,55.455233
0000SPT22087,,,,
0000SPT2871,,,,
0000SPT24660,,,,
0000SPT23016,,,,
0000SPT17932,,,,
0000SPT24951,,Dumbarton A813,-4.554605,55.952733
0000SPT20098,,,,
0000SPT25032,,,,
0000SPT18545,,"KILMARNOCK, GRANGE/FIR PL",-4.5176752,55.60440199
43010094001,,"ASH GREEN LANE, Vicarage Lane",-1.509985323,52.46235297
43010294101,,"BEOLEY LANE, Beoley",-1.904747245,52.32392825
0000SPT24809,,"CUMBERNAULD, CLOUDEN RD/ELLISLAND RD",-3.973239021,55.95081046
43010039501,,"COVENTRY RD, Hinckley",-1.39308763,52.53543983
3500PWX18561,,Ford,-2.865910806,52.71465924
900011581,,Penygroes (coach Stop),-15.95100131,89.99577195
43011552801,,Charlecote,-1.614370184,52.20878306
43010094002,,"ASH GREEN LANE, Vicarage Lane",-1.510176852,52.46233579
43010039502,,"COVENTRY RD, Hinckley",-1.391816979,52.53564008
3500PWX18481,,Bucknell Tyndings,-2.960196523,52.36075308
0600ACX17018,,Chester Railway Station,-2.880686224,53.19669444
43012968502,,"EVESHAM RD, Plymouth Rd",-1.945629625,52.29533817
43017971402,,"Nuthurst Crescent, Tunnel Road",-1.553850528,52.51869604
0000SPT14093,,"CARLUKE, HYNDSHAW RD/BELSTANE GATE T C",-3.83509189,55.74193147
43010118602,,The Butts,-1.585981057,52.2826238
0000SPT2357,,"PAISLEY, COTTON STREET",-4.41901885,55.8454249
43017973302,,Heath End Road Church,-1.482249748,52.51307357
0000SPT1925,,"BONHILL, STRATHLEVEN DRIVE/LORRAINE WAY",-4.569198635,55.97039742
0600AWQ26551,,St Mark's,-2.914925551,53.17936587
43011527801,,"OAKES ROAD,Chestnut Avenue",-1.582580251,52.33723676
43011009001,,"WARWICK RD, Oldwich Road West",-1.698545741,52.35597422
43010305901,,"WASHFORD DRIVE, Redditch",-1.902589538,52.28412674
43011523401,,"BANBURY ROAD,St Nicholas Park",-1.582125574,52.28109086
43010399201,,"HAGLEY CAUSEWAY, The Badgers Sett",-2.105013098,52.43083002
0000SPT14095,,"CARLUKE, JAMES STREET/JOHN STREET",-3.836713577,55.73203079
900012312,,Wrexham: Bus Stn,-15.95100131,89.99577195
2000G790002,,"BEOLEY LANE, Beoley",-1.904747226,52.32393724
43010095701,,"A47, HOLLOW, Earl Shilton",-1.311020797,52.57645272
43011101002,,"LEICESTER RD, Brownsover",-1.250367426,52.39380918
43010399202,,"HAGLEY CAUSEWAY, The Badgers Sett",-2.104747697,52.43055156
2090PWX18964,,"Norton Canon, Eccles Green",-2.90959995,52.13057158
0600AWQ26553,,Cliveden Rd,-2.911885784,53.17855319
43017956501,,"HORSEFAIR STREET,Hotel ,G1",-1.133481461,52.63412685
43010095702,,"A47, HOLLOW, Earl Shilton",-1.311020656,52.57646171
0600AWQ26554,,Selkirk Drive,-2.907704112,53.17892672
0600AWQ26555,,Hough Green,-2.901702264,53.17955662
43017973602,,"Sheridan Drive, Chesterton Drive",-1.531851806,52.52665714
43013906001,,"BROMSGROVE RD, Lyttleton ArmS",-2.127862807,52.42366038
43011534401,,"COVENTRY ROAD, Granville Way",-1.380258936,52.53875363
43011549601,,"NARBOROUGH RD, Fullhurst Avenue",-1.159525773,52.61824929
43013906002,,"BROMSGROVE RD, Lyttleton ArmS",-2.127657115,52.42372354
43011534402,,"COVENTRY ROAD, Granville Way",-1.379959268,52.53909368
998041205,,Sedgemoor Services: M5,-2.922353391,51.26968743
43010313701,,"A 38, RASHWOOD, Robin Hood Inn",-2.125056292,52.28428001
43011421402,,"WAVERLEY RD, Station Rd",-1.573965037,52.34181802
0600AWQ26557,,Manweb,-2.924655598,53.1955522
43011552001,,Bishop Bright School,-1.550538598,52.29834423
43011549602,,"NARBOROUGH RD, Fullhurst Avenue",-1.159525601,52.61825828
43010102201,,"CROMWELL LANE, Water Tower",-1.603984852,52.38423921
2090ANZ16877,,Whitchurch Stores,-2.653393661,51.8559364
43013147702,,"STOURBRIDGE ROAD,War Memorial",-2.065051129,52.36039453
43010102202,,"CROMWELL LANE, Water Tower",-1.604353273,52.38411458
3500PWX18598,,Llanfyllin,-3.271416389,52.76413526
0000SPT24710,,"DALMELLINGTON, PARK CRESCENT/HOPES AVENUE",-4.403240436,55.32714555
43019550501,,"HINCKLEY RD, Burbage Church",-1.349283783,52.5306403
43011534701,,"COVENTRY ROAD, King Georges Way",-1.389866818,52.53593571
43019551001,,"RUGBY RD, Sketchley Hill School",-1.368416368,52.52561058
43011534702,,"COVENTRY ROAD, King Georges Way",-1.388826022,52.53656863
43011535201,,"ASHBY ROAD,Netherley Road",-1.366063598,52.55184884
43010039001,,"HILL TOP, Earl Shilton",-1.309668977,52.57984307
43013914501,,"CALLOWBROOK LANE, Brookend Drive",-2.019913014,52.3958319
43010399801,,"PARK RD, Station Rd",-2.14222511,52.42216958
998033333,,Staffordshire Norton Canes Services: Bus Stop,-1.968565867,52.66519332
0000SPT3614,,"BATTLEFIELD, SPEAN STREET/ORCHY STREET",-4.263745814,55.82098711
43011535202,,"ASHBY ROAD,Netherley Road",-1.365978594,52.55263052
43010039002,,"HILL TOP, Earl Shilton",-1.309668836,52.57985206
43010094901,,"LEICESTER RD, Weddington Rd",-1.460953991,52.52538474
100053214,,Bus Station Bay 9,-2.592653798,51.45906614
43011992501,,"PACKINGTON LANE, Little Packington",-1.690094128,52.458026
0000SPT2662,,"PAISLEY, BEN LOYAL AVENUE/BEN HOPE AVENUE",-4.385790067,55.83341923
43011992502,,"PACKINGTON LANE, Little Packington",-1.690167459,52.45806216
43017971602,,"Hickman Road, Medical Centre",-1.537173309,52.52381026
43011537601,,"SIMMONS COURT,Church Street,Wellesbourne",-1.593288555,52.19684496
998046125,,Leigh Delamere (Service Area): M4 Motorway,-2.157806871,51.51040638
0000SPT11370,,"NEWARTHILL, HIGH ST/BIGGAR ROAD TERMINUS",-3.929788517,55.82169446
43010097701,,"CASTLE HILL, Kenilworth Castle",-1.590052675,52.34814108
43011537602,,"SIMMONS COURT,Warwick Road,Wellesbourne",-1.592627249,52.19716634
43013904501,,"WILDMOOR LANE, Wildmoor",-2.055822945,52.37850539
43017956001,,"WELFORD PLACE, Horsefair Street",-1.133982398,52.63195493
43011547002,,"M6 Flyover,A426,Ashtree Farm",-1.245132466,52.40950887
0600ACX17033,,Dodleston,-2.95638007,53.14402698
43017971202,,"Spring Hill, Oakwood House",-1.582500357,52.50305007
0600ACX17034,,Balderton,-2.939082487,53.15363938
43010098001,,"HIGH ST, Leamington Spa",-1.533223848,52.28407241
0000SPT11670,,"NEWMAINS, A73.NEWMAINS RBT/A71",-3.877342506,55.78344102
0000SPT22148,,"BRAEHEAD, KINGS INCH DR/B&Q",-4.359684632,55.87250723
3500PWX18553,,Coed-Y-Go,-3.083726294,52.84099255
TTA2322,,Belfast Stenaline Ferry Terminal,-5.917653725,54.60615925
43010095501,,"HINCKLEY BUS STATION, Waterloo Rd",-1.374784863,52.53903951
43010039601,,"COVENTRY RD, Harrowbrooke Rd",-1.408079358,52.53447287
0000SPT24102,,"STRATHAVEN, DOUGLAS ST/KYPE VIEW",-4.060294415,55.67216919
3500WRX02028,,The Trap,-3.057362558,52.92786462
43010095502,,"HINCKLEY BUS STATION, Waterloo Rd",-1.374799606,52.53903958
0000SPT11484,,"WISHAW, NETHERTON INDUSTRIAL ESTATE",-3.940435447,55.76908849
4200F125062,,"COVENTRY RD, Kingsbury School",-1.681145192,52.56616925
43010039602,,"COVENTRY RD, Harrowbrooke Rd",-1.406660417,52.53474446
0000SPT24937,,"KNIGHTSWOOD, PIKEMAN RD/HERMITAGE AVE",-4.34592339,55.89321729
43017972902,,"Bermuda Road, Tenlons Road",-1.484999723,52.51228545
43010092902,,"NEWTOWN RD, Playground",-1.47702684,52.48009317
0000SPT11647,,"HOLYTOWN, O'WOOD AVENUE",-3.966368855,55.82596781
0000SPT8563,,"HARDGATE, GLASGOW ROAD/KILBOWIE ROAD",-4.404514097,55.92479284
43010399301,,"HAGLEY CAUSEWAY, Wassel Grove Lane",-2.110159685,52.43038481
0000SPT1784,,"ALEXANDRIA, PLACE OF BONHILL/VALE OF LEVEN ACAD",-4.581915585,55.97820287
43010399302,,"HAGLEY CAUSEWAY, Wassel Grove Lane",-2.110438453,52.43011485
998022102,,"Cleckheaton - Hartshead Moor: Service Station, S",-1.746979491,53.71364511
0000SPT11488,,"NEWHOUSE, A73/NEWHOUSE RDBT",-3.92753037,55.83090541
43010088101,,"BRAUNSTONE, Post House Hotel",-1.165675577,52.61253915
43010095801,,"HINCKLEY RD, Golf Course Lane",-1.19668174,52.62834202
3500PWX18585,,Rowton Castle,-2.924583202,52.70655672
0600AWQ26491,,"Chester Business Park, MBNA",-2.899156147,53.16084234
43010095802,,"HINCKLEY RD, Golf Course Lane",-1.196681575,52.62835101
0000SPT17613,,"CORRIEGILLS, UNCLASSIFIED RD",-5.106744303,55.56228482
3500PWX18586,,"Halfway House, Marche Lane",-2.978443541,52.69797045
0600AWQ26492,,Herons Way,-2.905535518,53.16050634
43011546902,,"COTON ROAD,A426,Churchover",-1.244159615,52.41396182
0000SPT12365,,"CALDERBANK, PARK ROAD/CROWN STREET",-3.968074723,55.84551394
2090ANZ16893,,Llangarron Church WB,-2.683858442,51.88671935
0000SPT19325,,"AYR, BOSWELL PARK/CARRICK STREET",-4.631321467,55.46152914
43011534501,,"COVENTRY ROAD, Brandon Road",-1.382409138,52.53787485
43011022001,,"JOHNSON ROAD, Tewkesbury Drive",-1.465048488,52.48314122
0000SPT12366,,"CHAPELHALL, HONEYWELL CRES/MCPHERSON CRES",-3.94661509,55.83833346
900098256,,Tetbury - Long Street Bus Stop,-2.16082098,51.63767495
43010308802,,"BIRMINGHAM RD, Weights Lane",-1.942913634,52.32088711
43017930501,,"WARWICK RD, Snitterfield Turn",-1.680094061,52.21067856
43017973702,,"Whittleford Road, Spinney Lane",-1.51097382,52.524577
43013123001,,Stratford Road,-2.0535084,52.33548861
2090ANZ16894,,Llangarron Church EB,-2.684005091,51.8868084
0000SPT5878,,"PARKHEAD, HELENVALE STREET/MCEWAN STREET",-4.19639166,55.85013254
3500PWX18990,,"St Martins, Stans Shop",-3.042601931,52.91905934
0600AWQ26548,,Brewery Arms,-2.917256328,53.17990528
43011549701,,"LUTTERWORTH RD, Bramcote Hospital",-1.410142668,52.49819043
43017930502,,"WARWICK RD, Snitterfield Turn",-1.679580426,52.21087496
43011534502,,"COVENTRY ROAD, Brandon Road",-1.382021036,52.53821445
43011022002,,"JOHNSON ROAD, Tewkesbury Drive",-1.465150797,52.48320461
43011535001,,"WATLING ST, Dodwells Bridge",-1.415249775,52.53516476
3500B093807,,"Shrewsbury, Welshpool Road, The Oxon",-2.792821389,52.71437952
43011549702,,"LUTTERWORTH RD, Bramcote Hospital",-1.410142548,52.49819942
43011414502,,"DOVEHOUSE ROAD, Oxford Way",-1.60592268,52.18600037
0000SPT22102,,"LOCHWINNOCH, CALDERPARK AVENUE/CALDERPARK STREET",-4.630974888,55.79756855
43011535002,,"WATLING ST, Dodwells Bridge",-1.414910953,52.5351451
43019200001,,"WALSINGHAM DRIVE, Bermuda Park,Odeon Cinema",-1.480010813,52.49551525
0000SPT3171,,"PAISLEY, LOTHIAN CRES/CAIRNGORM CRES",-4.428837463,55.82817234
0000SPT14497,,"LESMAHAGOW, HILLCREST/BOUGHDEN WAY",-3.88243353,55.62864504
0000SPT5422,,"ANNIESLAND, STRATHCONA STREET/ANNIESLAND SAFEWAY",-4.322158691,55.89219405
3500AWQ26500,,Chirk Bank Post Office,-3.054440897,52.9270096
43017931501,,"INGON  LANE, Ingon Grange",-1.687484619,52.21904143
0000SPT22023,,"LINWOOD, PHOENIX CENTRE/GALA BINGO",-4.470018967,55.84604692
0000SPT14498,,"LESMAHAGOW, THE CRESCENT/MILTON PARK SQ",-3.891417999,55.64697505
0000SPT2706,,"PAISLEY, GILMOUR STREET/RAIL STATION",-4.423803609,55.84735296
43011534801,,"COVENTRY ROAD, Nutts Lane",-1.396476646,52.53557401
998015256,,Magor: Services:,-2.835022874,51.58729452
0000SPT6044,,"SHETTLESTON, VESALIUS ST/SHETTLESTON RD",-4.171636866,55.85227969
0000SPT5424,,"ANNIESLAND, ANNIESLAND SAFEWAY/STRATHCONA STREET",-4.322310402,55.89205637
0000SPT20045,,"GREENOCK, WATERFRONT/OFFICE BLOCK",-4.754106719,55.94916162
0600CH2547,,"Boundary Lane, Stanley Park Lane",-2.927308901,53.17215063
43011534802,,"COVENTRY ROAD, Nutts Lane",-1.396062025,52.53570675
43010302001,,"EVESHAM RD, The Eagle",-1.943855146,52.28391074
43011535301,,"ASHBY ROAD,Barrie Road",-1.367400265,52.55017486
43010039101,,"HINCKLEY RD, Belle Vue Rd",-1.331045841,52.57061613
0000SPT24249,,"BARRHEAD, CARLIBAR RD/BARRHEAD STATION",-4.396779715,55.80386919
43010302002,,"EVESHAM RD, The Eagle",-1.943620545,52.28395558
43011535302,,"ASHBY ROAD,Barrie Road",-1.367325513,52.55127124
43010039102,,"HINCKLEY RD, Belle Vue Rd",-1.331045704,52.57062512
43019008601,,"STATION RD, Coleshill Parkway Station",-1.707070132,52.51680074
3500AWQ26504,,Turning For Gobowen,-3.042098982,52.90183049
0000SPT9300,,"MOODIESBURN, MOSSVALE TERRACE/HEATHFIELD AVE",-4.076082373,55.91488864
43019008602,,"STATION RD, Coleshill Parkway Station",-1.707070073,52.51680973
43017971702,,"Hanchwood Institute, Chesterton Drive",-1.534639468,52.52369245
43011815001,,Wellesbourne HRI,-1.599132387,52.21079113
0000SPT3474,,"BARRHEAD, SPRINGFIELD ROAD/ST LUKES SCHOOL",-4.384953364,55.789494
AIMLAR,,Larne,-5.410655961,55.12146352
43011511502,,"CHURCH HILL WAY,Church",-1.907405066,52.31584816
0000SPT8119,,"MILNGAVIE, DOUGLAS ACADEMY/CRAIGTON ROAD",-4.342471302,55.94790061
43011899501,,"KINGSBURY RD, Glebe Fields",-1.744335539,52.53257442
43017957501,,"WALNUT STREET, Medical Centre",-1.135769724,52.62447931
43019200601,,"VICARAGE LANE, Ash Green School",-1.509648014,52.4622437
0000SPT4621,,"PRIESTHILL, PRIESTHILL ROAD/TURNING CIRCLE",-4.340002353,55.81397794
43011899502,,"KINGSBURY RD, Glebe Fields",-1.744041231,52.53248388
43019840001,,"EDISON ROAD, Sainsburys Supermarket",-1.714107881,52.52458523
998035374,,Leicester Forest East (Service Area): M1 Motorwa,-1.204688956,52.61939707
0000SPT12242,,"PETERSBURN, VARNSDORF WAY/PETERSBURN ROAD",-3.955895145,55.8590267
0000SPT2769,,"PAISLEY, SAINT JAMES INTERCHANGE/A726",-4.448808879,55.85908117
0000SPT11448,,"NEWARTHILL, MOSSHALL STREET/TILLANBURN ROAD",-3.935034796,55.81225671
3500WRX02220,,Moreton Hall,-3.042883909,52.91284498
43010079001,,"DARK LANE, Smorrall Lane",-1.504767778,52.47480946
43013900501,,"NEW RD, Rubery Church",-2.019324029,52.39325185
43010095601,,"BARWELL SQUARE, Barwell Village",-1.346249948,52.56817483
0000SPT5917,,"HALFWAY, GILBERTFIELD ROAD/DECHMONT AVENUE",-4.14349671,55.80807972
0000SPT10282,,"STRATHAVEN, BOWLING GREEN RD/TURNING CIRCLE",-4.073810909,55.67605766
3500WRX02221,,Moerton Hall,-3.042003266,52.91332916
43017959001,,"INFIRMARY ROAD, Leicester Royal Infirmary",-1.134201259,52.62835154
998042705,,Bridgwater Services,-2.994967934,51.10342866
43010079002,,"DARK LANE, Smorrall Lane",-1.504767677,52.47481845
43010095602,,"BARWELL SQUARE, Barwell Village",-1.346249814,52.56818382
3501B207402,,"Ruabon, High Street, Nr Post Office",-3.037852527,52.98909425
43019550101,,"SOUTHFIELD RD, Hinckley Station",-1.371408773,52.53592008
4200F125056,,Wasperton Turn,-1.604921921,52.22961858
43018920502,,"HEATH END RD, Raywoods",-1.482250276,52.51302862
43011525401,,"LEAMINGTON ROAD,The Gatehouse",-1.564708922,52.33224566
43011878501,,"EDGE HILL, Whately Villas",-1.654015337,52.58668891
3500PWX18576,,Rowton Castle,-2.924542988,52.70675481
0600AWD71270,,Boundary Lane,-2.926812923,53.17273879
43011878502,,"EDGE HILL, Whately Villas",-1.654296617,52.58658185
43017939601,,Theatre Street,-1.591831088,52.28249131
0000SPT12329,,"SHAWHEAD, BLACKNESS STREET/BURLEIGH STREET",-4.019418478,55.84777318
43019009501,,"Hinkley, Rugby Road",-1.363497771,52.52122408
43010102101,,"CROMWELL LANE, Peeping Tom",-1.601168382,52.3870077
6400IM1087,,Dundee Mid Craigie Road Fishers Depot,-2.936295084,56.47663539
0000SPT7605,,"GLASGOW CITY CENTRE, ELMBANK ST/ELMBANK CRES",-4.268266231,55.86380118
0000SPT15332,,"WESTFIELD, LITTLE DRUM RD/MORGAN STANLEY",-4.06538996,55.93919846
0000SPT10770,,"LARKHALL, MILLBURN PL/SHAW ST",-3.96554889,55.72420373
43010102102,,"CROMWELL LANE, Peeping Tom",-1.601062455,52.38734897
0000SPT15171,,"CUMBERNAULD, AUCHINBEE WAY/TESCO CAR PARK",-4.023932716,55.95481388
43011532301,,"HINCKLEY ROAD,Tiverton Drive",-1.4440784,52.52880383
43013908001,,"STOURBRIDGE RD, Bell End",-2.092182835,52.39321732
998021381,,Middleton - Birch: (Service Area): M62 Motorway,-2.231936092,53.56868885
43017960501,,"WOLVEY RD, The Three Pots",-1.365837858,52.52042753
0000SPT17419,,"BEITH, MAINS ROAD/HAWTHORN CRES",-4.64566627,55.75233745
43013908002,,"STOURBRIDGE RD, Bell End",-2.092182816,52.39320833
43011534601,,"COVENTRY ROAD, Rosemary Way",-1.385540591,52.53745962
43010308902,,"BIRMINGHAM RD, Bordesley Garage",-1.940708896,52.32393371
0000SPT7635,,"GLASGOW CITY CENTRE, WEST GEORGE ST/HOPE ST",-4.258011679,55.86252488
0600FLX17125,,Chester Business Park Shell,-2.900039752,53.16375716
43011101501,,"MAXSTOKE LANE,Old Hall Farm",-1.65240717,52.44457113
43011534602,,"COVENTRY ROAD, Rosemary Way",-1.384710868,52.53775198
43011535101,,"ASHBY ROAD,Hangmans Lane",-1.364826731,52.55579781
43011523901,,"MYTON ROAD,Myton Crofts",-1.550841831,52.28285507
0000SPT18322,,"STEWARTON, CAIRNDUFF PLACE/STEWARTON ACADEMY",-4.502375345,55.68321025
0000SPT19508,,"STRAITON, B741/B7045",-4.551519788,55.31146287
43019004001,,"SHAWBURY LANE, Development Site",-1.644581496,52.50292903
43011535102,,"ASHBY ROAD,Hangmans Lane",-1.365418618,52.55566613
43017957001,,"UPPERTON ROAD, Narborough Road",-1.151979849,52.62579208
0600AWQ26489,,Pulford Church,-2.934709182,53.1230383
43013122501,,Regents Park Road,-2.04173569,52.33284127
43019004002,,"SHAWBURY LANE, Development Site",-1.644537374,52.50291991
43010118001,,"NARBOROUGH RD SOUTH, Fosse Park,M and S",-1.17300722,52.60750221
43010096701,,"CLINTON LANE, Beehive Hill",-1.592910824,52.35662872
43017957002,,"UPPERTON ROAD, Narborough Road",-1.151979675,52.62580107
2090PWX18497,,"Wigmore, High School",-2.851429171,52.31663491
3500WRX02001,,Oakhurst Road,-3.060896259,52.86490493
43017974102,,"Ardbury Road, Heath End Road",-1.497297074,52.51543086
43010118002,,"NARBOROUGH RD SOUTH, Fosse Park,Sainsburys",-1.17300705,52.60751119
43019000101,,"COVENTRY ROAD,Meadow View",-1.679159975,52.55719201
998016701,,Novotel Hotel (Coventry),-1.489710029,52.45796105
2090PWX18498,,"Leinthall Starkes, Burrington Turn",-2.82663552,52.32445294
3500WRX02002,,Oakhurst Road,-3.061402677,52.86435202
0000SPT11405,,"SHOTTS, BURNBREA ROAD/MAIN STREET",-3.789525324,55.81484717
43019000102,,"COVENTRY ROAD,Meadow View",-1.67971994,52.55726544
43011534901,,"COVENTRY ROAD, Ahby Canal Bridge",-1.403678474,52.53503514
0000SPT10939,,"LARKHALL, MERRYTON ST/FAIRHOLM ST",-3.979864084,55.7459021
2090PWX18499,,Elton,-2.797818082,52.33341678
43010039201,,"MILL STREET, Moat Way",-1.35347608,52.56337788
43013148901,,"BRACES LANE,Marlbrook Hotel",-2.046656646,52.36507813
43010116001,,"CHARLES STREET, Royal Standard",-1.131449419,52.63824737
43011534902,,"COVENTRY ROAD, Ahby Canal Bridge",-1.402936026,52.53542696
0000SPT10320,,"EAST KILBRIDE, STATION RD/TORRANCE RD",-4.17992229,55.76597138
0000SPT1408,,"GOUROCK, LARKFIELD IND EST/TURNING CIRCLE",-4.833804027,55.94258913
43010039202,,"MILL STREET, Moat Way",-1.353475948,52.56338687
43010116002,,"CHARLES STREET, Royal Standard",-1.131449241,52.63825636
0000SPT2727,,"PAISLEY, ST JAMES INTERCHANGE/M8 WESTBOUND SLIP",-4.450403082,55.85825848
0000SPT24913,,"DUMBARTON, CROSSLET RD/DUMBARTON ACADEMY",-4.558995014,55.94645883
0000SPT11730,,"BONKLE, CHURCH RD/A721",-3.856619411,55.79233815
0000SPT4152,,"MARYHILL, MARYHILL ROAD/SHOPPING CENTRE",-4.285900772,55.88757026
43011510002,,"NEW ROAD,Winsor Street",-2.060403931,52.33386704
43011409501,,"COVENTRY ROAD, Fillongley",-1.582697235,52.47912837
0000SPT6254,,"EASTERHOUSE, LOCHDOCHART ROAD/TURNING CIRCLE",-4.099012253,55.87222465
2090PWX18500,,Pipe Aston,-2.791064553,52.34559923
43017973002,,"Outside No 22, Bermuda Road",-1.484057676,52.51220044
43017971802,,"Equestrian Centre, Chesterton Drive",-1.530860934,52.52419896
0000SPT11544,,"NEWMAINS, NEWMAINS RDBT/MORNINGSIDE ROAD",-3.877139181,55.78319249
43010190901,,"PACKINGTON LANE, St Edwards RC School",-1.701978177,52.48526026
